{
"type": "FeatureCollection",
"name": "Lieux de cours",
"crs": { "type": "name", "properties": { "name": "urn:ogc:def:crs:OGC:1.3:CRS84" } },
"features": [
{ "type": "Feature", "properties": { "Noms": "Campus de Metyipkwale", "localisation": "Metyipkwale", "temporalité": "ACTUEL", "X": 11.18031333, "Y": 2.86732333 }, "geometry": { "type": "Point", "coordinates": [ 11.180313333333334, 2.867323333333332 ] } },
{ "type": "Feature", "properties": { "Noms": "ICABE", "localisation": "Abang", "temporalité": "ACTUEL", "X": 11.133025, "Y": 2.935165 }, "geometry": { "type": "Point", "coordinates": [ 11.133025, 2.935165 ] } },
{ "type": "Feature", "properties": { "Noms": "Campus CRA", "localisation": "Ekombite", "temporalité": "ACTUEL", "X": 11.15431833, "Y": 2.92701167 }, "geometry": { "type": "Point", "coordinates": [ 11.154318333333332, 2.927011666666666 ] } },
{ "type": "Feature", "properties": { "Noms": "Mission catholique de Nko'ovos", "localisation": "Nko'ovos 2", "temporalité": "ACTUEL", "X": 11.15290833, "Y": 2.91729333 }, "geometry": { "type": "Point", "coordinates": [ 11.152908333333334, 2.917293333333333 ] } },
{ "type": "Feature", "properties": { "Noms": "Université d'Ebolowa (annexe)", "localisation": "Mekalat", "temporalité": "ACTUEL", "X": 11.16522333, "Y": 2.91888833 }, "geometry": { "type": "Point", "coordinates": [ 11.165223333333332, 2.918888333333333 ] } },
{ "type": "Feature", "properties": { "Noms": "collège le bâtisseur", "localisation": "Angon", "temporalité": "ACTUEL", "X": 11.140595, "Y": 2.911235 }, "geometry": { "type": "Point", "coordinates": [ 11.140595, 2.911235 ] } },
{ "type": "Feature", "properties": { "Noms": "Lycée Technique d'Ebolowa", "localisation": "Angale", "temporalité": "ACTUEL", "X": 11.16601112, "Y": 2.92762541 }, "geometry": { "type": "Point", "coordinates": [ 11.166011120797384, 2.927625406565802 ] } }
]
}
